{
  "map_title": "Explore Our Locations",
  "readMore": "Read More",
  "locations": [
    {
      "name": "Rydals herrgård",
      "description": "A manor with an exciting history",
      "lat": 57.55471,
      "lng": 12.69499,
      "url": "/utredningar/rydals-herrgard"
    },
    {
      "name": "Rankhyttans Herrgård",
      "description": "Dennis had his scariest experience during the Estes method",
      "lat": 60.47551,
      "lng": 15.72056,
      "url": "/utredningar/rydals-herrgard"
    },
    {
      "name": "Gathenhielmska Huset",
      "description": "This is where Stig came through for the second time",
      "lat": 57.69856,
      "lng": 11.93414,
      "url": "/utredningar/rydals-herrgard"
    },
    {
      "name": "Hemsökta Museet",
      "description": "The team's calmest investigation so far.",
      "lat": 57.71478,
      "lng": 12.95052,
      "url": "/utredningar/rydals-herrgard"
    },
    {
      "name": "Hjortsberga Prästgård",
      "description": "Where we first made contact with Stig",
      "lat": 56.17984,
      "lng": 15.6124,
      "url": "/utredningar/rydals-herrgard"
    },
    {
      "name": "Frammegården",
      "description": "The team's very first investigation together",
      "lat": 59.81873,
      "lng": 11.98332,
      "url": "/utredningar/rydals-herrgard"
    }
  ]
}